{"copyright":"Copyright Sveriges Radio 2015. All rights reserved.","messages":[{"id":1568648,"priority":3,"createddate":"\/Date(1450013858723+0100)\/","title":"Uddevalla","exactlocation":"Herrestarakan X vid IKEA","description":"","latitude":58.350410461425781,"longitude":11.829156875610352,"category":0,"subcategory":"Trafikstörning"},{"id":1539416,"priority":5,"createddate":"\/Date(1447764180897+0100)\/","title":"Rv 84 Sörsforsa-Delsbo","exactlocation":"Vid avfarten Näsviken","description":"","latitude":61.749435424804688,"longitude":16.835500717163086,"category":0,"subcategory":"Vägarbete"},{"id":1568778,"priority":3,"createddate":"\/Date(1450068398907+0100)\/","title":"Lv 575 vid Burösunds Brygga","exactlocation":"Nordöleden","description":" Nordö 3 går som färja 2. Viss begränsad framkomlighet mellan 05:30-21:30\n","latitude":57.771945953369141,"longitude":11.620141983032227,"category":1,"subcategory":"Färja"},{"id":1569194,"priority":3,"createddate":"\/Date(1450083790573+0100)\/","title":"E6 Rollsbomotet (87)-Kodemotet (88) ","exactlocation":"","description":" På E6 mellan Kodemotet och Lunna pågår vägräckesarbeten i båda rikningar tom 15:00. Vägarbetsfordon rör sig i vägområdet\n","latitude":57.936870574951172,"longitude":11.867331504821777,"category":0,"subcategory":"Vägarbete"},{"id":1263776,"priority":3,"createddate":"\/Date(1450071063110+0100)\/","title":"Örebro län ","exactlocation":"","description":" Risk för lokal frosthalka under morgonen. ","latitude":59.4352722,"longitude":14.7333231,"category":0,"subcategory":"Halkvarning"},{"id":1569038,"priority":4,"createddate":"\/Date(1450073061887+0100)\/","title":"Blodbussen","exactlocation":"Grafiska Vägen 16 . Står på parkeringen till ICA Maxi vid Mölndalsvägen\n","description":"14-15 december. Öppet mellan 08:30-15:00.","latitude":57.681172323308068,"longitude":12.002808285787475,"category":3,"subcategory":"Hälsa och sjukvård"},{"id":1407249,"priority":5,"createddate":"\/Date(1437382657240+0200)\/","title":"Rv 55 Uppsala","exactlocation":"Tpl Tycho Hedéns väg","description":"Arbete med att bygga en ny järnvägsbro över Tycho Hedéns väg. Begränsad höjd är 3,2 meter.","latitude":59.879184722900391,"longitude":17.634679794311523,"category":0,"subcategory":"Vägarbete"},{"id":1483398,"priority":3,"createddate":"\/Date(1447830550287+0100)\/","title":"Lv 282 Uppsala Almungevägen","exactlocation":"Mellan brandstationen och E4","description":"Arbete på vägen. Risk för köbildning även ut på E4 vid trafikplats Kumla.","latitude":59.846316445205872,"longitude":17.720024407748333,"category":0,"subcategory":"Vägarbete"},{"id":1553125,"priority":4,"createddate":"\/Date(1448547814650+0100)\/","title":"Mora","exactlocation":"Fridhemsgatan","description":"Avstängd mellan Moragatan och Oxbergsvägen. Omledning uppskyltad.","latitude":61.002901588480924,"longitude":14.535675134854968,"category":0,"subcategory":"Vägarbete"},{"id":1551339,"priority":3,"createddate":"\/Date(1449823361427+0100)\/","title":"Lv 864 Danholn-Sundborn","exactlocation":"Överbackavägen","description":"Avstängt från 26/11 ca kl. 11:00. Pga arbeten med vatten och avlopp.","latitude":60.623680114746094,"longitude":15.79430103302002,"category":0,"subcategory":"Vägarbete"},{"id":1497351,"priority":3,"createddate":"\/Date(1449668783383+0100)\/","title":"Lv 120 Delary–Älmhult","exactlocation":"","description":"Begränsad framkomlighet förbi arbetet. Endast ett körfält öppet förbi så trafiken får köra växelvis. Risk för långa köer. ","latitude":56.549530029296875,"longitude":14.026314735412598,"category":0,"subcategory":"Vägarbete"},{"id":1439931,"priority":3,"createddate":"\/Date(1449044498187+0100)\/","title":"E20 Strängnäs","exactlocation":"Tpl Biskopskvarn (137)- tpl Lunda (136), mot Eskilstuna","description":"Begränsad framkomlighet. Bygge av järnvägsbro över E20. ","latitude":59.365291595458984,"longitude":16.964046478271484,"category":0,"subcategory":"Vägarbete"},{"id":1484713,"priority":3,"createddate":"\/Date(1448612981103+0100)\/","title":"E22 Söderköping","exactlocation":"Östra Rydsvägen–tpl Klevbrinken i riktning mot Norrköping","description":"Begränsad framkomlighet. Byggnation av en ny gång- och cykelväg.","latitude":58.483070373535156,"longitude":16.312185287475586,"category":0,"subcategory":"Vägarbete"},{"id":1557116,"priority":3,"createddate":"\/Date(1449850438837+0100)\/","title":"Lv 240 Molkom-Hagfors","exactlocation":"Fösked-Älvsbacka","description":"Begränsad framkomlighet. Diknings- och dräneringsarbete.","latitude":59.676589965820313,"longitude":13.683475494384766,"category":0,"subcategory":"Vägarbete"},{"id":1513371,"priority":3,"createddate":"\/Date(1448533660523+0100)\/","title":"E22 Kalmar–Karlskrona","exactlocation":"tpl Ljungbyholm–Hossmo i riktning mot Karlskrona","description":"Begränsad framkomlighet. Körfält avstängt vid arbetsplats för byggnation av nya väg E22","latitude":56.638080596923828,"longitude":16.222171783447266,"category":0,"subcategory":"Vägarbete"},{"id":1508092,"priority":5,"createddate":"\/Date(1444103600370+0200)\/","title":"Lv 241 från Sunne-Lerdalen","exactlocation":"","description":"Beläggningsarbete.","latitude":59.839916229248047,"longitude":13.188547134399414,"category":0,"subcategory":"Vägarbete"},{"id":1569151,"priority":4,"createddate":"\/Date(1450080056953+0100)\/","title":"Områdena kring Ödeshög och Boxholm","exactlocation":"","description":"Besiktning av elledningar med lågt flygande helikopter. Hästar och andra djur kan bli skrämda. Pågår 14–18 dec.","latitude":58.234752616257076,"longitude":14.649525213170689,"category":3,"subcategory":"Buller"},{"id":1569025,"priority":4,"createddate":"\/Date(1450080067373+0100)\/","title":"Områdena kring Asby och Fornåsa","exactlocation":"","description":"Besiktning av elledningar med lågt flygande helikopter. Hästar och andra djur kan bli skrämda. Pågår under måndagen.","latitude":57.902847928706848,"longitude":15.20586644087461,"category":3,"subcategory":"Buller"},{"id":1569022,"priority":4,"createddate":"\/Date(1450072329340+0100)\/","title":"Området kring Loftahammar","exactlocation":"","description":"Besiktning av elledningar med lågt flygande helikopter. Hästar och andra djur kan bli skrämda. Pågår under måndagen.","latitude":57.906593757083691,"longitude":16.693683920123842,"category":3,"subcategory":"Buller"},{"id":1566776,"priority":4,"createddate":"\/Date(1450071949273+0100)\/","title":"Stockholm","exactlocation":"\n","description":"Blodbussar måndag 14/12: Södertörns högskola Alfred Nobels allé 5 Huddinge, Globentorget 2 Johanneshov,  Åva Gymn Åva Skolgränd 1-3 Täby, Gårdsvägen 6 Solna.","latitude":59.321777576813048,"longitude":17.997000126836259,"category":3,"subcategory":"Hälsa och sjukvård"},{"id":1568988,"priority":4,"createddate":"\/Date(1450068943873+0100)\/","title":"Bromölla","exactlocation":"Torget vid IFÖs huvudkontor","description":"Blodbussen på plats 10:00-12:30 och 13:45-16:45.","latitude":56.07352402107314,"longitude":14.478900923481088,"category":3,"subcategory":"Hälsa och sjukvård"},{"id":1534135,"priority":3,"createddate":"\/Date(1449551664123+0100)\/","title":"Lv 660 Norrberge-Midlanda","exactlocation":"Bron över Indalsälven","description":"Bron är avstängd. Trafik hänvisas via E4","latitude":62.519069671630859,"longitude":17.42425537109375,"category":0,"subcategory":"Vägarbete"},{"id":1559533,"priority":3,"createddate":"\/Date(1449135552837+0100)\/","title":"Lv 541 Hassel-Lucksta","exactlocation":"","description":"Byte av vägtrumma. ","latitude":62.273338317871094,"longitude":16.879863739013672,"category":0,"subcategory":"Vägarbete"},{"id":1569393,"priority":3,"createddate":"\/Date(1450096936650+0100)\/","title":"E12 Hemavan-norska gränsen","exactlocation":"På sträckan Umasjö, Vilasund, Strimasund","description":"Bärgning av lastbil pågår.","latitude":66.0373306274414,"longitude":15.04576301574707,"category":0,"subcategory":"Trafikstörning"},{"id":1569381,"priority":3,"createddate":"\/Date(1450096310093+0100)\/","title":"Göteborg–Linnéplatsen","exactlocation":"Per Dubbsgatan nära Dag Hammarskjöldsleden","description":"Det kan vara besvärligt att ta sig till och från Sahlgrenska sjukhuset och området runt, detta på grund av vägarbete med brunnar.\n","latitude":57.683925628662109,"longitude":11.957837104797363,"category":0,"subcategory":"Vägarbete"},{"id":1544476,"priority":3,"createddate":"\/Date(1447668545113+0100)\/","title":"Rv 55 Strängnäs-Enköping","exactlocation":"Hjulstabron-cirkulationsplats Enögla riktning mot Uppsala","description":"Dikning. Rörligt arbete.","latitude":59.518310546875,"longitude":17.004179000854492,"category":0,"subcategory":"Vägarbete"},{"id":1568985,"priority":4,"createddate":"\/Date(1450068416830+0100)\/","title":"Karlskrona","exactlocation":"Skeppsbrokajen","description":"Ett 40-tal parkeringar avstängda under måndagen pga gatuarbete.","latitude":56.16735126319665,"longitude":15.590203795470808,"category":0,"subcategory":"Trafikstörning"},{"id":1566793,"priority":3,"createddate":"\/Date(1449757248790+0100)\/","title":"E4 tpl Sörberge (233) i riktning mot Umeå","exactlocation":"","description":"Ett avstängt körfält.","latitude":62.516319274902344,"longitude":17.391677856445313,"category":2,"subcategory":"Vägarbete"},{"id":1569280,"priority":3,"createddate":"\/Date(1450091919500+0100)\/","title":"E45 Strömsund-Hammerdal","exactlocation":"Fagerdal N-Fagerdal S i södergående riktning","description":"Ett avstängt körfält.","latitude":63.671577453613281,"longitude":15.392151832580566,"category":0,"subcategory":"Vägarbete"},{"id":1569251,"priority":3,"createddate":"\/Date(1450087760750+0100)\/","title":"Rv 56 Västerås-Sala","exactlocation":"Brånsta-Hallsta ","description":"Ett avstängt körfält.","latitude":59.761821746826172,"longitude":16.557783126831055,"category":0,"subcategory":"Vägarbete"},{"id":1557249,"priority":3,"createddate":"\/Date(1449031807503+0100)\/","title":"E4 Nyköping-Norrköping","exactlocation":"Trafikplats Gammelsta (128), i riktning mot Norrköping.","description":"Ett körfält avstängt. ","latitude":58.753318786621094,"longitude":16.547788619995117,"category":0,"subcategory":"Vägarbete"},{"id":1569273,"priority":3,"createddate":"\/Date(1450090048977+0100)\/","title":"E6 Ängelholm","exactlocation":"Tpl Rebbelberga (35)–N Varalöv (33) i riktning mot Malmö ","description":"Ett körfält avstängt.","latitude":56.246829986572266,"longitude":12.898561477661133,"category":0,"subcategory":"Vägarbete"},{"id":1511540,"priority":4,"createddate":"\/Date(1449984811443+0100)\/","title":"Uppsala län","exactlocation":"","description":"Fortsatt risk för lokal frosthalka.","latitude":59.96126,"longitude":17.78068,"category":0,"subcategory":"Halkvarning"},{"id":1511539,"priority":4,"createddate":"\/Date(1450084507753+0100)\/","title":"Västmanlands län ","exactlocation":"","description":"Fortsatt risk för lokal frosthalka.","latitude":59.946888,"longitude":16.2786083,"category":0,"subcategory":"Halkvarning"},{"id":1557682,"priority":3,"createddate":"\/Date(1450093394023+0100)\/","title":"Lv 891 Skenäsfärjan ","exactlocation":"","description":"Färjan står still tisd 15/12 till torsd 17/12 08:30–16:00. Orsaken är att dykare finns i vattnet i samband med bojarbete. ","latitude":58.638118743896484,"longitude":16.596672058105469,"category":2,"subcategory":"Färja"},{"id":1568482,"priority":3,"createddate":"\/Date(1449991960013+0100)\/","title":"Lv 836.01 Överkalixs kommun","exactlocation":"Röduppleden","description":"Färjan är inställd. Ingen isväg i nuläget.","latitude":66.485633850097656,"longitude":22.777805328369141,"category":1,"subcategory":"Färja"},{"id":1569347,"priority":3,"createddate":"\/Date(1450093200677+0100)\/","title":"E4 Kalix-Töre","exactlocation":"Nära tpl Åkroken","description":"Ganska många renar. Renar på flera ställen.","latitude":65.880586260918335,"longitude":22.948816494495031,"category":0,"subcategory":"Trafikstörning"},{"id":1521191,"priority":3,"createddate":"\/Date(1447151600150+0100)\/","title":"Magnus Ladulåsgatan mot Rosenlundsgatan","exactlocation":"Mellan Västgötagatan och Swedenborgsgatan","description":"Gatan enkelriktad mot Rosenlundsgatan från Västgötagatan till Swedenborgsgatan. Schakt för fjärrvärme. ","latitude":59.312595367431641,"longitude":18.066604614257813,"category":0,"subcategory":"Vägarbete"},{"id":1554578,"priority":3,"createddate":"\/Date(1448868215437+0100)\/","title":"Lv 316 Vemdalen-Åsarna","exactlocation":"Klövsjö","description":"Grävarbeten och nedläggning av kabel.  ","latitude":62.503658294677734,"longitude":14.200440406799316,"category":0,"subcategory":"Vägarbete"},{"id":1565286,"priority":3,"createddate":"\/Date(1449587917697+0100)\/","title":"Valhallavägen","exactlocation":"Mellan Surbrunnsgatan och Frejgatan","description":"Höger körfält avstängt på grund av vägarbete.","latitude":59.347324371337891,"longitude":18.065418243408203,"category":0,"subcategory":"Vägarbete"},{"id":1569371,"priority":3,"createddate":"\/Date(1450094879853+0100)\/","title":"E4 Docksta-Bjästa","exactlocation":"Slutet av Skulubacken ","description":"I vänster körfält. Stor sopsäck på körbanan.","latitude":63.086095411020331,"longitude":18.368711586685194,"category":0,"subcategory":"Trafikstörning"},{"id":1569394,"priority":4,"createddate":"\/Date(1450097275640+0100)\/","title":"Örkelljunga","exactlocation":"","description":"Just nu ca 2800 hushåll utan ström av E.ons kunder. Prognos 17:00.","latitude":56.288276287820729,"longitude":13.273276132705497,"category":3,"subcategory":"El"},{"id":1569166,"priority":3,"createddate":"\/Date(1450081918427+0100)\/","title":"Knivsta kommun","exactlocation":"","description":"Just nu går det inte att ringa till Knivsta kommuns växelnummer på grund av tekniska problem. Felsökning pågår. Ingen prognos. Direktnummer till alla verksamheter fungerar som vanligt.","latitude":59.727532199802937,"longitude":17.794585111801954,"category":3,"subcategory":"Tele och data"},{"id":1534043,"priority":3,"createddate":"\/Date(1447690500393+0100)\/","title":"E22 Gusum–Ringarum","exactlocation":"","description":"Kortare omledning på en tillfällig väg. Byte av rörbro.","latitude":58.309658050537109,"longitude":16.483673095703125,"category":0,"subcategory":"Vägarbete"},{"id":1442001,"priority":3,"createddate":"\/Date(1447822581000+0100)\/","title":"Lv 156 Skene","exactlocation":"Korsningen Varbergsvägen/Örbyvägen","description":"Körfält avstängt. Arbetsfordon finns på vägbanan. Arbete med att bredda vägen. ","latitude":57.486343383789063,"longitude":12.646737098693848,"category":0,"subcategory":"Vägarbete"},{"id":1567592,"priority":3,"createddate":"\/Date(1449849180070+0100)\/","title":"E6 av-/påfart från Bällskärsvägen, E6 (Tpl Tingstadsmotet) till E6.21 (Tpl Ringömotet) i Göteborg kommun","exactlocation":"Av-/påfart från Bällskärsvägen, Tingstadsmotet, södergående","description":"Körfält stängs av i samband med schaktningsarbeten.","latitude":57.730606079101563,"longitude":11.983270645141602,"category":0,"subcategory":"Vägarbete"},{"id":1406672,"priority":3,"createddate":"\/Date(1449851288547+0100)\/","title":"E20 Partille–Lerum","exactlocation":"Jerikotunneln–Fräntorpsmotet(78)","description":"Körfält stängs av nattetid på grund av asfalteringsarbete.","latitude":57.74127197265625,"longitude":12.185935974121094,"category":0,"subcategory":"Vägarbete"},{"id":1567569,"priority":3,"createddate":"\/Date(1449849030527+0100)\/","title":"E6 vid Ringömotet","exactlocation":"Södergående","description":"Körfältsavstängning i samband med ombyggnadsarbete.\n","latitude":57.729965209960938,"longitude":11.982913970947266,"category":0,"subcategory":"Vägarbete"},{"id":1566765,"priority":3,"createddate":"\/Date(1449849081740+0100)\/","title":"Härryda-Bollebyggd","exactlocation":"Härryda kyrka-Björredsmotet (76)","description":"Ledningsarbete i riktning mot Göteborg.","latitude":57.690269470214844,"longitude":12.278976440429687,"category":0,"subcategory":"Vägarbete"},{"id":1510363,"priority":4,"createddate":"\/Date(1450096216003+0100)\/","title":"Blekinge län","exactlocation":"","description":"Mestadels torra vägar. Risk för lokal halka på det lågtrafikerade vägnätet.","latitude":56.3117943,"longitude":15.2829609,"category":0,"subcategory":"Halkvarning"},{"id":1569228,"priority":3,"createddate":"\/Date(1450085790797+0100)\/","title":"Västra Götalands län","exactlocation":"","description":"Minusgrader i vägarna och risk för halka.","latitude":58.39404430131129,"longitude":13.873498995071923,"category":0,"subcategory":"Halkvarning"},{"id":1510364,"priority":4,"createddate":"\/Date(1450092242130+0100)\/","title":"Jönköpings län","exactlocation":"","description":"Minusgrader i vägarna och ökad risk för lokal frosthalka under måndagseftermiddagen.","latitude":57.47894,"longitude":14.3679695,"category":0,"subcategory":"Halkvarning"},{"id":1511541,"priority":4,"createddate":"\/Date(1450092497920+0100)\/","title":"Östergötlands län","exactlocation":"","description":"Minusgrader i vägarna och ökad risk för lokal frosthalka under måndagseftermiddagen.","latitude":58.3364258,"longitude":15.6248283,"category":0,"subcategory":"Halkvarning"},{"id":1487818,"priority":4,"createddate":"\/Date(1450085663183+0100)\/","title":"Halland","exactlocation":"","description":"Minusgrader i vägarna på många håll och risk för halka.","latitude":56.9494667,"longitude":12.8037291,"category":0,"subcategory":"Halkvarning"},{"id":1557082,"priority":3,"createddate":"\/Date(1448892369050+0100)\/","title":"E16 Kungsgården-Sandviken","exactlocation":"Mellan tpl Åsen och tpl Sandviken Västra i riktning mot Sandviken","description":"Montering av fundament för elstolpar.","latitude":60.609512329101563,"longitude":16.647851943969727,"category":0,"subcategory":"Vägarbete"},{"id":1546988,"priority":3,"createddate":"\/Date(1447913096053+0100)\/","title":"Rv 61 Åmotsfors-Charlottenberg","exactlocation":"Dalen till Solhem ","description":"Ombyggnad till 2+1 väg.","latitude":59.784858703613281,"longitude":12.354942321777344,"category":0,"subcategory":"Vägarbete"},{"id":1569232,"priority":3,"createddate":"\/Date(1450086351260+0100)\/","title":"E4 Gränna–Jönköping","exactlocation":"Vättersmålen/Vätterleden (102)–Huskvarna N (101) i södergående","description":"Personal och arbetsfordon på vägbanan. Grävningsarbete på del av sträckan. Pågår under måndagen.","latitude":57.920463562011719,"longitude":14.312447547912598,"category":0,"subcategory":"Vägarbete"},{"id":1569272,"priority":3,"createddate":"\/Date(1450089251040+0100)\/","title":"E6 Dingle-Munkedal","exactlocation":"Dinglemotet (102)-Gläborgsmotet (101)","description":"Påkört rådjur i vänster körfält.","latitude":58.503990173339844,"longitude":11.56391716003418,"category":0,"subcategory":"Trafikstörning"},{"id":1568631,"priority":3,"createddate":"\/Date(1450011104793+0100)\/","title":"E4 tpl Lampen- tpl Vånafjärden ","exactlocation":"","description":"Renar på eller brevid vägen","latitude":65.821784973144531,"longitude":23.29925537109375,"category":0,"subcategory":"Trafikstörning"},{"id":1569231,"priority":3,"createddate":"\/Date(1450085905647+0100)\/","title":"E12 Lycksele-Storuman","exactlocation":"Vid Rusfors","description":"Renar vid vägen.","latitude":64.722700373575933,"longitude":18.227808293406596,"category":0,"subcategory":"Trafikstörning"},{"id":1510365,"priority":4,"createddate":"\/Date(1450081348407+0100)\/","title":"Skåne län","exactlocation":"","description":"Risk för frosthalka. ","latitude":55.88818,"longitude":13.6161013,"category":0,"subcategory":"Halkvarning"},{"id":1487819,"priority":3,"createddate":"\/Date(1450071114327+0100)\/","title":"Värmlands län","exactlocation":"","description":"Risk för lokal frosthalka under morgonen. ","latitude":59.8638344,"longitude":13.2893448,"category":0,"subcategory":"Halkvarning"},{"id":1487662,"priority":4,"createddate":"\/Date(1450067173990+0100)\/","title":"Dalarnas län","exactlocation":"  ","description":"Risk för lokal frosthalka. ","latitude":60.7344055,"longitude":14.7284212,"category":0,"subcategory":"Halkvarning"},{"id":1487657,"priority":4,"createddate":"\/Date(1449851449117+0100)\/","title":"Gävleborgs län","exactlocation":"","description":"Risk för lokal frosthalka.","latitude":61.4704742,"longitude":16.70279,"category":0,"subcategory":"Halkvarning"},{"id":1505778,"priority":4,"createddate":"\/Date(1449811874517+0100)\/","title":"Jämtlands län","exactlocation":"  ","description":"Risk för lokal frosthalka.","latitude":63.4809952,"longitude":14.326333,"category":0,"subcategory":"Halkvarning"},{"id":1569216,"priority":3,"createddate":"\/Date(1450084798390+0100)\/","title":"E20 Strängnäs-Södertälje","exactlocation":"Läggesta-Nykvarn","description":"Räckesarbeten utförs efter sträckan. ","latitude":59.202320098876953,"longitude":17.362766265869141,"category":0,"subcategory":"Vägarbete"},{"id":1539616,"priority":5,"createddate":"\/Date(1447690760343+0100)\/","title":"Lv 873 i Kiruna ","exactlocation":"","description":"Schaktning för ny vattenledning för nya stadskärnan. Schaktningsarbetet kommer att ske i vägmitt.","latitude":67.848213195800781,"longitude":20.291839599609375,"category":0,"subcategory":"Vägarbete"},{"id":1510366,"priority":3,"createddate":"\/Date(1450086624663+0100)\/","title":"Kalmar län","exactlocation":"","description":"SMHI-varning klass 1: I södra Kalmar län utom Öland kan underkylt regn och regn på kalla vägbanor medföra plötslig ishalka under måndagskvällen.","latitude":56.8659172,"longitude":15.9477434,"category":0,"subcategory":"Halkvarning"},{"id":1510367,"priority":3,"createddate":"\/Date(1450086694287+0100)\/","title":"Kronobergs län","exactlocation":"","description":"SMHI-varning klass 1: I östra delarna av länet kan underkylt regn och regn på kalla vägbanor medföra plötslig ishalka under måndagskvällen.","latitude":56.7490959,"longitude":14.3933315,"category":0,"subcategory":"Halkvarning"},{"id":1569364,"priority":3,"createddate":"\/Date(1450095466467+0100)\/","title":"E4 Uppsalavägen","exactlocation":"Vid Stora Wäsby i riktning mot Uppsala","description":"Stillastående bil i höger körfält. ","latitude":59.549114227294922,"longitude":17.900135040283203,"category":0,"subcategory":"Trafikstörning"},{"id":1569409,"priority":3,"createddate":"\/Date(1450097501177+0100)\/","title":"Rv 70 Sala-Avesta","exactlocation":"Vid avfarten Rosshyttan","description":"Stillastående bil. Polis finns på plats. Det är mycket trångt att passera.","latitude":60.064248288789919,"longitude":16.329489601873775,"category":0,"subcategory":"Trafikstörning"},{"id":1563801,"priority":2,"createddate":"\/Date(1450096157243+0100)\/","title":"Örebro-Borlänge/Falun/Gävle/Mjölby/Lindesberg","exactlocation":"Frövi","description":"Stopp för tågtrafik mellan Skinnskatteberg och Örebro pga godståg som spårat ut vid Frövi. Vissa av avgångarna som passerar Frövi går bara delsträckor, andra ersätts med buss och vissa avgångar ställs in helt. Kolla med tditt tågbolag vad som gäller just för din avgång. ","latitude":59.465029844507576,"longitude":15.366200419183267,"category":1,"subcategory":"Tåg"},{"id":1569324,"priority":3,"createddate":"\/Date(1450097216947+0100)\/","title":"Borås-Göteborg","exactlocation":"","description":"Stopp i tågtrafiken tillsvidare pga en olycka utanför Borås.","latitude":57.649509936846435,"longitude":12.797396289092072,"category":1,"subcategory":"Tåg"},{"id":1481993,"priority":3,"createddate":"\/Date(1443014816513+0200)\/","title":"Rv 23 Växjö","exactlocation":"Korsningen Stora Räppevägen/Norrleden","description":"Stundtals köer. Byggnation av gång- och cykelport.","latitude":56.869258880615234,"longitude":14.73924732208252,"category":0,"subcategory":"Vägarbete"},{"id":1569282,"priority":3,"createddate":"\/Date(1450090144100+0100)\/","title":"Hudiksvall-Söderhamn","exactlocation":"","description":"Störningar i tågtrafiken pga stillastående tåg på sträckan Hudiksvall-Söderhamn. ","latitude":61.446907047263352,"longitude":17.0782303764998,"category":1,"subcategory":"Tåg"},{"id":1569084,"priority":3,"createddate":"\/Date(1450077800713+0100)\/","title":"Lv 250 Köping-Fagersta","exactlocation":"Vid Kolsva, i riktning mot Oti","description":"Sättning av kantsten.","latitude":59.599636077880859,"longitude":15.842994689941406,"category":0,"subcategory":"Vägarbete"},{"id":1515180,"priority":3,"createddate":"\/Date(1448361541940+0100)\/","title":"Rv 32 Tranås-Sommen","exactlocation":"","description":"Södergående trafik leds av vid Tenbäcken och kör gamla vägen till Tranås. Norrgående trafik passerar på rv 32 som vanligt, begränsad framkomlighet där. Omledningen beräknas gälla fram till jul. Vägen byggs om till 2+1-väg ","latitude":58.065387725830078,"longitude":14.95679759979248,"category":0,"subcategory":"Vägarbete"},{"id":1546358,"priority":5,"createddate":"\/Date(1448822530847+0100)\/","title":"Midvägen Östersund","exactlocation":"","description":"Till följd av ökad obehörig trafik vid Lugnvikskolan stängs Midvägen av för trafik mellan 07.00-17.00. Under den tiden får endast fordon i linjetrafik samt fordon med rörelsehindrad person som innehar parkeringstillstånd färdas på vägen.","latitude":63.205564994924174,"longitude":14.630246761853261,"category":0,"subcategory":"Trafikstörning"},{"id":1569386,"priority":3,"createddate":"\/Date(1450096589890+0100)\/","title":"Mariebergsgatan","exactlocation":"Före korsningen Drottningholmsvägen i riktning mot Lilla Västerbron","description":"Trafik släpps förbi växelvis. Risk för kö. Vägarbete.","latitude":59.332368734570821,"longitude":18.02380258065763,"category":0,"subcategory":"Vägarbete"},{"id":1562926,"priority":3,"createddate":"\/Date(1449638194460+0100)\/","title":"Rv 55 Uppsala–Enköping","exactlocation":"Litslena - tpl Annelund (143) i riktning mot Strängnäs ","description":"Trafiken leds med signal eller vakt. ","latitude":59.664558410644531,"longitude":17.266510009765625,"category":0,"subcategory":"Vägarbete"},{"id":1557988,"priority":3,"createddate":"\/Date(1448964155283+0100)\/","title":"E6 Strömstad–Svinesund","exactlocation":"Nordbymotet (114)–Svinesund","description":"Trafiken leds över på en körbana. Orsaken är rivning av en betalstation.","latitude":59.077041625976563,"longitude":11.249477386474609,"category":0,"subcategory":"Vägarbete"},{"id":1526215,"priority":5,"createddate":"\/Date(1449570678643+0100)\/","title":"Rv 72 Vänge-Kvarnbo","exactlocation":"","description":"Trafiken regleras med ljussignaler på grund av kabelarbete.","latitude":59.851406097412109,"longitude":17.490695953369141,"category":0,"subcategory":"Vägarbete"},{"id":1563338,"priority":5,"createddate":"\/Date(1449414609677+0100)\/","title":"Lv 815 Fellingsbro-Örebro","exactlocation":"Karltorp","description":"Träd över vägen i riktning mot Örebro","latitude":59.379780734207195,"longitude":15.439994573446493,"category":0,"subcategory":"Trafikstörning"},{"id":1569211,"priority":3,"createddate":"\/Date(1450084569183+0100)\/","title":"E22 Sölvesborg–Ronneby","exactlocation":"Tpl Listerlandet (47)–Galtsjön ","description":"Vajerräcke lagas.","latitude":56.187957763671875,"longitude":14.845806121826172,"category":0,"subcategory":"Vägarbete"},{"id":1569367,"priority":3,"createddate":"\/Date(1450094607277+0100)\/","title":"Kalmar","exactlocation":"Esplanaden 1-17","description":"Vattnet avstängt under måndagen kl. 14-15 pga ett akut ledningsarbete. När vattnet kommer tillbaka kan det vara missfärgat, spola då lite extra i kranen. \n","latitude":56.664923976602175,"longitude":16.351037256028842,"category":3,"subcategory":"Vatten"},{"id":1569397,"priority":3,"createddate":"\/Date(1450097130517+0100)\/","title":"E45 Åmål","exactlocation":"","description":"Vid järnvägsövergång söder om Åmål pågår asfalteringsarbeten. Flaggvakter.","latitude":59.037261962890625,"longitude":12.671897888183594,"category":0,"subcategory":"Vägarbete"},{"id":1564938,"priority":4,"createddate":"\/Date(1450073209717+0100)\/","title":"Blodcentralerna","exactlocation":"","description":"Vädjan från blodcentralen om hjälp med att fylla upp blodlagren genom att lämna blod inför kommande helger. Välkommen till de  fasta blodcentralerna eller blodbussar.","latitude":59.32815695796981,"longitude":18.16465430127802,"category":3,"subcategory":"Hälsa och sjukvård"},{"id":1530106,"priority":3,"createddate":"\/Date(1446026202917+0100)\/","title":"Rv 87 Stugun","exactlocation":"","description":"Vägarbete genom Stugun. TMA-bil på vägen. Rör sig personer på vägbanan. ","latitude":63.167629241943359,"longitude":15.618271827697754,"category":0,"subcategory":"Vägarbete"},{"id":1569006,"priority":3,"createddate":"\/Date(1450072537530+0100)\/","title":"Lv 560 Kungsör","exactlocation":"Kungsgatan, Kungsör C-Västersäby","description":"Vägarbete med trafikljus. Begränsad framkomlighet.","latitude":59.424568176269531,"longitude":16.127054214477539,"category":0,"subcategory":"Vägarbete"},{"id":1556757,"priority":5,"createddate":"\/Date(1449574238383+0100)\/","title":"Rv 55 Uppsala-Enköping","exactlocation":"Bärbyleden/Enköpingsvägen","description":"Vägarbete.","latitude":59.855125427246094,"longitude":17.592878341674805,"category":0,"subcategory":"Vägarbete"},{"id":1569421,"priority":3,"createddate":"\/Date(1450098969603+0100)\/","title":"Rv 44 Uddevalla","exactlocation":"Motorvägstunnlarna mot Torp","description":"Vägen avstängd kvällen och natten mot tisdag kl. 19-05 pga arbete. Trafiken leds om via Kurverödsleden. Eventuellt fortsätter arbetet också natten tisdag-onsdag. ","latitude":58.356483459472656,"longitude":11.90642261505127,"category":2,"subcategory":"Vägarbete"},{"id":1569186,"priority":3,"createddate":"\/Date(1450083205857+0100)\/","title":"Lv 614 Lagan","exactlocation":"Åbyforsvägen, vid bron över Lagan","description":"Vägen avstängd pga broarbete. Följ orange vägvisning.","latitude":56.91180419921875,"longitude":13.991808891296387,"category":0,"subcategory":"Vägarbete"},{"id":1542094,"priority":3,"createddate":"\/Date(1448619042497+0100)\/","title":"Borås","exactlocation":"Åsbogatan, mellan Kungsleden och Allégatan","description":"Vägen avstängd pga byggnation av bussfil.","latitude":57.719811893090274,"longitude":12.943832949851924,"category":0,"subcategory":"Vägarbete"},{"id":1564907,"priority":3,"createddate":"\/Date(1450087394240+0100)\/","title":"Lv 1541 Mjöbäck–Mårdaklev","exactlocation":"","description":"Vägen avstängd tills vidare. Reparationsarbete efter översvämningsskador.","latitude":57.29132080078125,"longitude":12.942523002624512,"category":0,"subcategory":"Trafikstörning"},{"id":1537497,"priority":5,"createddate":"\/Date(1448822506417+0100)\/","title":"Lv 1019 vid Storulvån båda riktningarna","exactlocation":"","description":"Vägen till Storulvån är vinterstängd mellan 1/11 - 31/1.","latitude":63.215427398681641,"longitude":12.406817436218262,"category":0,"subcategory":"Trafikstörning"},{"id":1566630,"priority":3,"createddate":"\/Date(1449743241087+0100)\/","title":"Göteborg–Gamlestadsvägen ","exactlocation":"Mellan Slakthusgatan och Väg 190","description":"Vägen är stängd strax efter Alelyckans köpcenter. Det går att välja intilliggande Lärjeågatan som allternativ.\n","latitude":57.755306243896484,"longitude":12.010954856872559,"category":0,"subcategory":"Vägarbete"},{"id":1558430,"priority":4,"createddate":"\/Date(1449257762383+0100)\/","title":"Lv 531 Funäsdalen-Ljungdalen ","exactlocation":"Från Mittådalen till Ljungdalen ","description":"Vägen över Flatruet är nattstängd mellan klockan 22:00-06:00 under perioden 1 December-15 April. Vid besvärligt väder kan vägen stängas med kort varsel även under annan tid.","latitude":62.775653839111328,"longitude":12.765754699707031,"category":0,"subcategory":"Trafikstörning"},{"id":1558549,"priority":4,"createddate":"\/Date(1449064961027+0100)\/","title":"Umeå, Umeälven","exactlocation":"Vid järnvägsbron mellan Bergsboda och Stor-Sandskär","description":"Isränna bryts så fort isen lägger sig. Isrännan kvarstår december ut.  ","latitude":63.767076320421921,"longitude":20.325018599481211,"category":3,"subcategory":"Övrigt"},{"id":1551498,"priority":3,"createddate":"\/Date(1449807322783+0100)\/","title":"Västberga","exactlocation":"Västberga allé bron över järnvägen ","description":"Omlagd körväg för linje 165, linje 143 dras in på sträckan Liljeholmen-Älvsjö stn.  Nya linje145 trafikerar sträckan Telefonplan-Västberga-Årstaberg-(Liljeholmen). ","latitude":59.288072367712566,"longitude":18.01951159520339,"category":1,"subcategory":"Buss"},{"id":1569112,"priority":3,"createddate":"\/Date(1450085829593+0100)\/","title":"Stockholms län","exactlocation":"","description":"Från 13 december gäller ny tidtabell för T-bana, Pendeltåg, Lidingöbanan, samt för bussarna i Tyresö/Handen och Nynäshamn.","latitude":59.285266705393632,"longitude":18.096224197616603,"category":1,"subcategory":"Tåg"},{"id":761409,"priority":3,"createddate":"\/Date(1450068300270+0100)\/","title":"DESK 1 Sändningsinfo","exactlocation":"FÅR EJ AVSLUTAS  ","description":" \n ","latitude":59.397291803203714,"longitude":13.533387234936201,"category":3,"subcategory":"Övrigt"},{"id":1564995,"priority":3,"createddate":"\/Date(1450067520547+0100)\/","title":"Västberga-Älvsjö","exactlocation":"Västberga allé bron som går över järnvägen och Åbyvägen","description":"Bron stängd för renovering från 14 december. Kommer att vara avstängd för biltrafik till sommaren 2017. ","latitude":59.288883209228516,"longitude":18.018430709838867,"category":0,"subcategory":"Vägarbete"},{"id":1564467,"priority":3,"createddate":"\/Date(1450074762553+0100)\/","title":"Solna Ankdammsgatan","exactlocation":"Korsningen Huvudstagatan","description":"Korsningen är enkelriktad, trafiken från Ankdammsgatan får inte köra ut på Huvudstagatan.","latitude":59.356404924539568,"longitude":17.997326555475574,"category":0,"subcategory":"Trafikstörning"},{"id":1380130,"priority":3,"createddate":"\/Date(1449850891697+0100)\/","title":"Lv190 Gråbovägen","exactlocation":"Bergsjökrysset","description":"Rondell byggs i korsningen Gråbovägen/Bergsjövägen som en del i den större ombyggnaden av Gråbovägen. ","latitude":57.7848526286231,"longitude":12.088115548634436,"category":0,"subcategory":"Vägarbete"},{"id":1552649,"priority":5,"createddate":"\/Date(1449255662420+0100)\/","title":"Roslagsbanan","exactlocation":"Stockholms östra - Universitetet ","description":"29 nov-18 dec är tågen inställda kvällstid från kl.22:40 t.o.m. trafikdygnets slut fr.o.m. kväll/natt mot måndag t.o.m. kväll/natt mot fredag. ","latitude":59.348331883632277,"longitude":18.076839632193813,"category":1,"subcategory":"Tåg"},{"id":1524596,"priority":3,"createddate":"\/Date(1447846836343+0100)\/","title":"E6 och Lundbyleden ","exactlocation":"Norr och söder om Tingstadstunneln","description":"Tingstadstunneln är stängd 13.10 - 13.20 tisdagar och torsdagar. Detta på grund av sprängsningsarbeten i samband med den nya Marieholmstunneln.","latitude":57.727034098459058,"longitude":11.981105082125636,"category":0,"subcategory":"Vägarbete"},{"id":1559653,"priority":4,"createddate":"\/Date(1449838831323+0100)\/","title":"Lilla Edet och Uddevalla kommuner","exactlocation":"","description":"Från 13 dec ökas utbudet av närtrafik med förbättrade möjligheter att resa kollektivt mellan landsbygd och tätort. Mer information genom Västtrafik.","latitude":58.386448309793359,"longitude":12.085438430691461,"category":1,"subcategory":"Buss"},{"id":1436158,"priority":3,"createddate":"\/Date(1444908845153+0200)\/","title":"Lv 824/ lv 1067 Gäddede-Klimpfjäll","exactlocation":"Stekenjokkvägen mellan Leipikvattnet och Klimpfjäll","description":"Vägen är nu stängd för säsongen. Öppnas åter för trafik 6 juni 2016.","latitude":64.848213195800781,"longitude":14.175168991088867,"category":0,"subcategory":"Vägarbete"}]}